City ID,City,Country,Date,Lat,Lng,Max Temp (F),Humidity (%),Cloudiness (%),Wind Speed (mph)
0,Clyde River,CA,2022-10-17 07:47:30,70.4692,-68.5914,26.83,100,100,21.85
1,Upernavik,GL,2022-10-17 07:48:32,72.7868,-56.1549,37.44,95,100,26.96
2,Kavieng,PG,2022-10-17 07:48:25,-2.5744,150.7967,82.62,74,97,12.08
3,Norman Wells,CA,2022-10-17 07:46:17,65.282,-126.8329,28.44,93,40,3.44
4,Butaritari,KI,2022-10-17 07:47:23,3.0707,172.7902,81.59,75,19,13.65
5,Hithadhoo,MV,2022-10-17 07:47:19,-0.6,73.0833,81.28,71,98,8.93
6,Onega,RU,2022-10-17 07:52:29,63.9061,38.1404,49.62,84,100,13.06
7,Niquelândia,BR,2022-10-17 07:52:30,-14.4739,-48.4597,70.56,38,22,2.39
8,Cabo San Lucas,MX,2022-10-17 07:47:40,22.8909,-109.9124,72.05,78,7,10.63
9,Lata,PT,2022-10-17 07:47:18,40.1629,-8.3327,65.8,83,99,4.05
10,Wote,KE,2022-10-17 07:52:30,-1.7808,37.6288,73.99,56,84,5.82
11,Kamaishi,JP,2022-10-17 07:52:30,39.2667,141.8833,64.74,87,98,7.67
12,Turbat,PK,2022-10-17 07:49:31,26.0023,63.044,98.38,7,0,6.15
13,Kovdor,RU,2022-10-17 07:52:31,67.5662,30.4758,39.85,96,100,9.04
14,Ukholovo,RU,2022-10-17 07:48:49,53.7929,40.4892,44.64,63,100,15.66
15,Vrangel',RU,2022-10-17 07:52:31,42.7297,133.0839,50.31,44,4,13.4
16,Esperance,AU,2022-10-17 07:49:35,-33.8667,121.9,59.47,66,1,23.89
17,Ribeira Grande,PT,2022-10-17 07:48:29,38.5167,-28.7,63.77,88,75,26.46
18,Bosaso,SO,2022-10-17 07:52:31,11.2842,49.1816,84.18,74,0,14.97
19,Mar del Plata,AR,2022-10-17 07:47:21,-38.0023,-57.5575,55.87,89,75,11.99
20,Yining,CN,2022-10-17 07:52:32,29.0361,114.5636,76.84,38,5,11.48
21,Sheltozero,RU,2022-10-17 07:52:32,61.3667,35.3667,50.38,74,99,18.21
22,Cidreira,BR,2022-10-17 07:47:16,-30.1811,-50.2056,60.91,92,47,7.16
23,Rikitea,PF,2022-10-17 07:47:12,-23.1203,-134.9692,68.94,64,100,16.13
24,Qaqortoq,GL,2022-10-17 07:49:04,60.7167,-46.0333,28.6,62,100,6.38
25,Zaysan,KZ,2022-10-17 07:52:33,47.4667,84.8667,61.5,25,100,10.56
26,Petropavlovsk-Kamchatskiy,RU,2022-10-17 07:52:33,53.0452,158.6483,37.99,75,75,4.47
27,Kumul,CN,2022-10-17 07:49:19,42.8,93.45,70.97,11,0,3.42
28,Finschhafen,PG,2022-10-17 07:52:33,-6.6024,147.8681,81.52,81,100,3.18
29,Paamiut,GL,2022-10-17 07:47:17,61.994,-49.6678,37.29,67,100,10.76
30,Kaitangata,NZ,2022-10-17 07:47:36,-46.2817,169.8464,47.68,96,100,1.43
31,Kloulklubed,PW,2022-10-17 07:47:13,7.0419,134.2556,86.5,75,100,8.23
32,Bustamante,MX,2022-10-17 07:52:34,26.5333,-100.5,72.43,83,98,6.2
33,Asău,RO,2022-10-17 07:49:32,46.4333,26.4,45.52,49,1,3.0
34,Klaksvík,FO,2022-10-17 07:49:04,62.2266,-6.589,47.32,88,87,26.93
35,Marrakesh,MA,2022-10-17 07:52:35,31.6315,-8.0083,66.27,72,40,5.75
36,Caravelas,BR,2022-10-17 07:49:13,-17.7125,-39.2481,71.67,89,26,5.86
37,Felanitx,ES,2022-10-17 07:52:35,39.4696,3.1483,71.96,83,97,11.1
38,São José da Coroa Grande,BR,2022-10-17 07:52:35,-8.8978,-35.1478,73.89,83,94,7.9
39,Wana,PK,2022-10-17 07:52:36,32.2989,69.5725,77.49,10,0,6.53
40,Albany,US,2022-10-17 07:47:22,42.6001,-73.9662,43.54,90,100,2.8
41,Khromtau,KZ,2022-10-17 07:52:36,50.2503,58.4347,48.06,47,50,8.99
42,Kattivākkam,IN,2022-10-17 07:52:36,13.2167,80.3167,89.69,65,89,8.77
43,Alofi,NU,2022-10-17 07:51:28,-19.0595,-169.9187,73.29,88,40,6.91
44,Hermanus,ZA,2022-10-17 07:47:34,-34.4187,19.2345,67.8,71,0,14.2
45,Elizabeth City,US,2022-10-17 07:51:45,36.2946,-76.2511,65.01,87,100,13.8
46,Yārāda,IN,2022-10-17 07:49:43,17.65,83.2667,88.12,66,75,5.75
47,Yulara,AU,2022-10-17 07:47:33,-25.2406,130.9889,81.19,30,86,18.28
48,Cape Town,ZA,2022-10-17 07:42:51,-33.9258,18.4232,69.39,70,75,11.5
49,Mataura,NZ,2022-10-17 07:47:16,-46.1927,168.8643,44.55,95,100,0.87
50,Rahā,IN,2022-10-17 07:52:39,26.2333,92.5167,84.61,69,55,2.68
51,Cayenne,GF,2022-10-17 07:47:30,4.9333,-52.3333,73.44,94,0,0.0
52,Ushuaia,AR,2022-10-17 07:47:11,-54.8,-68.3,42.46,70,0,9.22
53,Leningradskiy,RU,2022-10-17 07:47:34,69.3833,178.4167,15.37,93,100,8.39
54,Palana,RU,2022-10-17 07:52:39,59.1167,159.9667,28.58,75,100,6.78
55,Port Elizabeth,ZA,2022-10-17 07:46:38,-33.918,25.5701,76.1,84,0,8.01
56,Busselton,AU,2022-10-17 07:47:11,-33.65,115.3333,65.68,53,5,13.98
57,Hong Kong,HK,2022-10-17 07:43:57,22.2855,114.1577,84.25,58,100,14.0
58,Bredasdorp,ZA,2022-10-17 07:47:13,-34.5322,20.0403,73.38,53,1,8.66
59,Liverpool,GB,2022-10-17 07:51:29,53.4106,-2.9779,55.81,82,20,18.41
60,Qaanaaq,GL,2022-10-17 07:48:07,77.484,-69.3632,7.56,83,100,3.89
61,Serebryanyy Bor,RU,2022-10-17 07:52:40,56.8,124.8,26.92,92,98,10.33
62,Flin Flon,CA,2022-10-17 07:52:41,54.7682,-101.865,25.97,61,82,5.28
63,Thompson,CA,2022-10-17 07:48:38,55.7435,-97.8558,10.56,92,20,0.0
64,Labuhan,ID,2022-10-17 07:50:56,-6.8844,112.2051,85.51,65,100,0.98
65,Bluff,NZ,2022-10-17 07:47:34,-46.6,168.3333,50.05,75,100,9.28
66,Palmer,US,2022-10-17 07:49:47,42.1584,-72.3287,49.91,91,0,3.44
67,Inuvik,CA,2022-10-17 07:48:38,68.3499,-133.7218,31.21,93,100,11.5
68,New Norfolk,AU,2022-10-17 07:47:27,-42.7826,147.0587,51.93,65,20,1.01
69,Faanui,PF,2022-10-17 07:48:12,-16.4833,-151.75,78.82,72,13,12.82
70,Arraial do Cabo,BR,2022-10-17 07:47:32,-22.9661,-42.0278,70.3,89,91,22.84
71,Avarua,CK,2022-10-17 07:47:37,-21.2078,-159.775,75.25,78,75,9.22
72,Alice Springs,AU,2022-10-17 07:47:33,-23.7,133.8833,92.75,24,83,21.85
73,Haines Junction,CA,2022-10-17 07:49:06,60.7522,-137.5108,40.95,100,100,2.3
74,Ayan,RU,2022-10-17 07:52:42,56.45,138.1667,33.49,51,35,16.64
75,Saldanha,ZA,2022-10-17 07:49:32,-33.0117,17.9442,62.65,74,13,10.71
76,Roebourne,AU,2022-10-17 07:48:52,-20.7833,117.1333,86.32,30,0,15.95
77,East London,ZA,2022-10-17 07:46:16,-33.0153,27.9116,68.94,88,0,2.3
78,Saint George,US,2022-10-17 07:47:40,37.1041,-113.5841,64.99,40,0,3.0
79,Ponta do Sol,PT,2022-10-17 07:49:07,32.6667,-17.1,72.01,78,54,6.71
80,Dobele,LV,2022-10-17 07:52:43,56.625,23.2786,54.14,70,99,12.15
81,Volosovo,RU,2022-10-17 07:52:43,59.4333,29.4833,49.12,75,100,18.12
82,Moerai,PF,2022-10-17 07:51:40,-22.4333,-151.3333,71.35,70,95,21.18
83,Frutal,BR,2022-10-17 07:52:43,-20.0247,-48.9406,74.59,45,74,3.06
84,Provideniya,RU,2022-10-17 07:47:14,64.3833,-173.3,28.63,79,100,6.67
85,Shira,RU,2022-10-17 07:52:44,54.4911,89.9531,47.62,72,100,3.87
86,Anadyr,RU,2022-10-17 07:48:30,64.75,177.4833,18.1,92,75,6.71
87,Punta Arenas,CL,2022-10-17 07:47:30,-53.15,-70.9167,50.11,62,0,20.71
88,Sangar,RU,2022-10-17 07:52:45,63.9242,127.4739,26.28,90,59,11.1
89,Hobart,AU,2022-10-17 07:45:09,-42.8794,147.3294,52.27,76,75,12.66
90,Cordele,US,2022-10-17 07:52:45,31.9635,-83.7824,61.45,88,0,0.0
91,Dikson,RU,2022-10-17 07:47:21,73.5069,80.5464,29.88,97,100,10.16
92,Lavrentiya,RU,2022-10-17 07:48:38,65.5833,-171.0,31.3,77,100,17.36
93,Road Town,VG,2022-10-17 07:52:45,18.4167,-64.6167,78.89,76,25,5.44
94,Vostok,RU,2022-10-17 07:49:21,46.4856,135.8833,31.17,88,94,6.87
95,Atuona,PF,2022-10-17 07:47:09,-9.8,-139.0333,76.5,74,20,12.48
96,Barrow,US,2022-10-17 07:47:19,71.2906,-156.7887,30.22,86,100,21.85
97,Khatanga,RU,2022-10-17 07:47:09,71.9667,102.5,22.87,97,100,6.22
98,Avera,US,2022-10-17 07:48:44,33.194,-82.5271,64.45,59,100,7.23
99,Lopatyn,UA,2022-10-17 07:52:46,50.2202,24.8483,58.91,59,58,8.61
100,Amuntai,ID,2022-10-17 07:52:47,-2.4177,115.2494,86.34,72,100,1.9
101,San Policarpo,PH,2022-10-17 07:49:14,12.1791,125.5072,83.66,78,99,4.16
102,Torbay,CA,2022-10-17 07:48:39,47.6666,-52.7314,53.76,96,100,21.85
103,Gubkinskiy,RU,2022-10-17 07:52:48,64.434,76.5026,39.18,90,100,2.51
104,Batagay-Alyta,RU,2022-10-17 07:51:46,67.8006,130.4114,9.37,87,78,4.76
105,Fortuna,US,2022-10-17 07:48:09,40.5982,-124.1573,54.36,93,0,6.91
106,Atikokan,CA,2022-10-17 07:52:48,48.7555,-91.6216,23.2,82,100,11.99
107,Castro,BR,2022-10-17 07:47:19,-24.7911,-50.0119,55.81,97,5,1.86
108,São João da Barra,BR,2022-10-17 07:48:44,-21.6403,-41.0511,70.16,88,88,12.64
109,Muroto-misakicho,JP,2022-10-17 07:48:48,33.2833,134.15,69.53,93,100,4.92
110,Pajapan,MX,2022-10-17 07:52:49,18.25,-94.7,75.25,86,100,3.22
111,Mezen',RU,2022-10-17 07:48:17,65.8522,44.24,45.03,95,100,11.48
112,Isangel,VU,2022-10-17 07:48:36,-19.55,169.2667,75.51,82,61,6.4
113,Kargasok,RU,2022-10-17 07:51:35,59.0556,80.8572,43.21,63,100,5.28
114,Tuktoyaktuk,CA,2022-10-17 07:47:40,69.4541,-133.0374,28.74,94,100,19.69
115,Omboué,GA,2022-10-17 07:48:17,-1.5746,9.2618,80.96,75,23,3.67
116,Kruisfontein,ZA,2022-10-17 07:48:25,-34.0033,24.7314,73.89,50,6,9.28
117,Carnarvon,AU,2022-10-17 07:47:22,-24.8667,113.6333,75.27,43,0,23.02
118,Baoning,CN,2022-10-17 07:52:50,25.3378,110.026,87.66,20,0,15.66
119,Saskylakh,RU,2022-10-17 07:47:26,71.9167,114.0833,15.01,93,74,11.05
120,Port Lincoln,AU,2022-10-17 07:49:36,-34.7333,135.8667,63.09,68,100,10.02
121,Bethel,US,2022-10-17 07:47:10,41.3712,-73.414,49.95,90,75,0.0
122,Chokurdakh,RU,2022-10-17 07:47:15,70.6333,147.9167,16.45,96,100,9.44
123,Altamira,BR,2022-10-17 07:52:50,-3.2033,-52.2064,71.55,98,6,2.73
124,Strezhevoy,RU,2022-10-17 07:52:50,60.7333,77.5889,42.73,84,100,1.43
125,Pevek,RU,2022-10-17 07:47:22,69.7008,170.3133,4.55,96,80,5.23
126,Hilo,US,2022-10-17 07:43:19,19.7297,-155.09,81.28,86,100,3.44
127,Acaraú,BR,2022-10-17 07:52:51,-2.8856,-40.12,77.65,79,93,17.0
128,Phang Nga,TH,2022-10-17 07:49:31,8.4509,98.5298,75.24,93,100,5.68
129,Redmond,US,2022-10-17 07:48:03,47.674,-122.1215,60.78,83,0,1.99
130,Acapulco de Juárez,MX,2022-10-17 07:52:51,16.8634,-99.8901,77.65,90,100,4.36
131,Chui,UY,2022-10-17 07:47:27,-33.6971,-53.4616,58.24,92,100,14.94
132,Meadow Lake,US,2022-10-17 07:52:52,34.8014,-106.5436,51.12,80,100,7.65
133,Soyo,AO,2022-10-17 07:52:52,-6.1349,12.3689,80.51,75,67,7.18
134,Tiksi,RU,2022-10-17 07:47:19,71.6872,128.8694,17.96,89,100,19.62
135,Tuatapere,NZ,2022-10-17 07:47:14,-46.1333,167.6833,46.54,91,99,2.91
136,Geraldton,AU,2022-10-17 07:49:16,-28.7667,114.6,70.21,46,0,19.57
137,Ostrovnoy,RU,2022-10-17 07:50:36,68.0531,39.5131,46.83,94,100,13.96
138,West Bay,KY,2022-10-17 07:52:52,19.3667,-81.4167,82.0,85,1,8.52
139,Touros,BR,2022-10-17 07:48:51,-5.1989,-35.4608,76.89,79,82,15.37
140,Kahului,US,2022-10-17 07:43:29,20.8947,-156.47,78.84,72,0,11.5
141,Constitución,CL,2022-10-17 07:47:43,-35.3333,-72.4167,50.25,89,100,7.94
142,Egvekinot,RU,2022-10-17 07:51:46,66.3167,-179.1667,13.15,77,100,12.77
143,Port-Gentil,GA,2022-10-17 07:52:53,-0.7193,8.7815,82.36,78,40,5.75
144,Bambous Virieux,MU,2022-10-17 07:48:11,-20.3428,57.7575,76.21,83,75,11.5
145,Benton Harbor,US,2022-10-17 07:52:53,42.1167,-86.4542,46.65,67,100,18.41
146,Umluj,SA,2022-10-17 07:49:11,25.0213,37.2685,87.71,51,6,6.35
147,Burgthann,DE,2022-10-17 07:52:53,49.352,11.3115,56.8,78,52,4.45
148,Vaini,TO,2022-10-17 07:47:16,-21.2,-175.2,75.36,100,20,4.61
149,Trairi,BR,2022-10-17 07:50:18,-3.2778,-39.2689,78.08,77,99,14.7
150,Tari,NG,2022-10-17 07:52:55,12.4086,4.4914,84.45,25,6,6.11
151,Am Timan,TD,2022-10-17 07:52:55,11.0297,20.2827,85.23,59,71,4.38
152,Nanortalik,GL,2022-10-17 07:47:37,60.1432,-45.2371,34.72,68,100,7.61
153,Mayo,US,2022-10-17 07:51:31,38.8876,-76.5119,60.12,93,0,3.0
154,Boguszów-Gorce,PL,2022-10-17 07:52:55,50.7551,16.2049,62.8,82,16,9.89
155,Esna,EG,2022-10-17 07:52:56,25.2934,32.554,80.62,25,0,14.47
156,Bulgan,MN,2022-10-17 07:52:56,48.8125,103.5347,45.34,21,2,4.65
157,Gondanglegi,ID,2022-10-17 07:52:56,-7.7479,112.0132,85.69,61,100,16.2
158,Hammerfest,NO,2022-10-17 07:52:56,70.6634,23.6821,43.25,100,75,10.36
159,Bathsheba,BB,2022-10-17 07:48:07,13.2167,-59.5167,81.21,83,20,12.66
160,Nikolskoye,RU,2022-10-17 07:48:06,59.7035,30.7861,49.91,76,100,15.21
161,Marsaxlokk,MT,2022-10-17 07:52:56,35.8419,14.5431,74.08,68,20,8.05
162,Puerto Ayora,EC,2022-10-17 07:47:13,-0.7393,-90.3518,66.54,89,98,4.0
163,Ahipara,NZ,2022-10-17 07:49:46,-35.1667,173.1667,58.32,96,100,6.17
164,Nago,JP,2022-10-17 07:52:57,26.5881,127.9761,73.83,90,100,9.78
165,Twentynine Palms,US,2022-10-17 07:52:57,34.1356,-116.0542,70.07,48,0,1.1
166,Raudeberg,NO,2022-10-17 07:48:52,61.9875,5.1352,48.87,1,38,15.01
167,Udachny,RU,2022-10-17 07:51:12,66.4167,112.4,22.21,96,100,3.71
168,Muros,ES,2022-10-17 07:50:41,42.7762,-9.0603,62.69,93,100,15.1
169,Beihai,CN,2022-10-17 07:52:58,21.4833,109.1,84.36,42,93,21.7
170,Kamakwie,SL,2022-10-17 07:52:58,9.5,-12.2333,73.72,95,91,0.69
171,Necochea,AR,2022-10-17 07:49:21,-38.5473,-58.7368,44.71,88,100,7.11
172,Altay,CN,2022-10-17 07:52:59,47.8667,88.1167,61.56,17,92,8.32
173,Arlit,NE,2022-10-17 07:48:25,18.7369,7.3853,86.22,18,0,14.74
174,Kodinsk,RU,2022-10-17 07:52:59,58.6881,99.1844,40.48,56,100,5.57
175,Juneau,US,2022-10-17 07:48:53,58.3019,-134.4197,59.11,97,100,18.41
176,Airai,TL,2022-10-17 07:47:36,-8.9266,125.4092,68.41,77,100,2.93
177,Kaeo,NZ,2022-10-17 07:48:51,-35.1,173.7833,60.33,95,100,5.93
178,Jamestown,US,2022-10-17 07:48:01,42.097,-79.2353,47.84,90,100,5.75
179,Flinders,AU,2022-10-17 07:49:20,-34.5833,150.8552,62.38,78,90,5.84
180,Estevan,CA,2022-10-17 07:52:59,49.1334,-102.9842,35.8,38,100,9.22
181,Poplar Bluff,US,2022-10-17 07:53:00,36.757,-90.3929,52.77,67,0,4.61
182,Deputatsky,RU,2022-10-17 07:48:02,69.3,139.9,10.56,90,84,8.19
183,Nioro,GM,2022-10-17 07:53:00,13.35,-15.75,76.39,88,96,0.54
184,Vao,NC,2022-10-17 07:47:15,-22.6667,167.4833,72.95,71,100,11.68
185,Shetpe,KZ,2022-10-17 07:53:01,44.1667,52.1167,55.99,29,99,9.13
186,Ilembula,TZ,2022-10-17 07:53:01,-8.9,34.5833,78.01,33,12,9.22
187,Talnakh,RU,2022-10-17 07:48:32,69.4865,88.3972,29.21,95,100,8.52
188,Portland,US,2022-10-17 07:53:01,45.5234,-122.6762,59.02,85,0,1.01
189,Bandarbeyla,SO,2022-10-17 07:48:01,9.4942,50.8122,82.2,66,27,6.96
190,Yellowknife,CA,2022-10-17 07:48:40,62.456,-114.3525,32.56,86,40,13.8
191,George,ZA,2022-10-17 07:48:05,-33.963,22.4617,76.55,53,0,6.91
192,Grand Gaube,MU,2022-10-17 07:50:06,-20.0064,57.6608,76.37,68,25,7.0
193,Kibuye,RW,2022-10-17 07:53:02,-2.0597,29.3482,69.17,74,100,3.89
194,Praia,CV,2022-10-17 07:45:11,14.9215,-23.5087,75.74,83,20,10.36
195,Monrovia,LR,2022-10-17 07:53:02,6.3005,-10.7969,74.97,88,99,3.94
196,Kapaa,US,2022-10-17 07:47:10,22.0752,-159.319,79.12,79,75,9.22
197,Poum,NC,2022-10-17 07:48:41,-20.2333,164.0167,76.33,71,21,10.49
198,Pisco,PE,2022-10-17 07:48:42,-13.7,-76.2167,57.25,94,2,6.91
199,Maningrida,AU,2022-10-17 07:53:03,-12.0667,134.2667,86.25,66,53,14.36
200,Hajnówka,PL,2022-10-17 07:49:01,52.7433,23.5812,60.67,82,45,5.39
201,Kiunga,PG,2022-10-17 07:53:04,-6.1219,141.2906,78.33,95,100,1.81
202,Kipushi,CD,2022-10-17 07:53:04,-11.7667,27.2333,74.75,22,18,9.95
203,Aitape,PG,2022-10-17 07:53:04,-3.1374,142.3475,81.66,75,40,2.82
204,Tazovsky,RU,2022-10-17 07:47:14,67.4667,78.7,35.02,98,100,9.33
205,Serenje,ZM,2022-10-17 07:53:04,-13.2325,30.2352,81.61,23,0,10.2
206,Codrington,AU,2022-10-17 07:48:49,-38.2667,141.9667,52.48,75,50,10.16
207,Kristinestad,FI,2022-10-17 07:53:05,62.2743,21.376,47.37,81,24,14.54
208,Galle,LK,2022-10-17 07:53:05,6.0367,80.217,78.31,82,100,10.69
209,Matamoros,MX,2022-10-17 07:53:05,25.5333,-103.25,73.11,53,21,4.07
210,Shelburne,CA,2022-10-17 07:53:05,44.0787,-80.2041,42.3,86,99,5.5
211,Campos Sales,BR,2022-10-17 07:53:06,-7.0744,-40.3761,65.84,72,1,6.69
212,Porvoo,FI,2022-10-17 07:53:06,60.3923,25.6651,50.5,92,100,1.01
213,Zhezkazgan,KZ,2022-10-17 07:53:07,47.8043,67.7144,53.58,40,75,6.71
214,Pahrump,US,2022-10-17 07:53:07,36.2083,-115.9839,66.25,43,0,3.2
215,Mnogovershinnyy,RU,2022-10-17 07:53:07,53.9353,139.9242,26.74,84,93,11.52
216,Guangming,CN,2022-10-17 07:53:07,45.3333,122.7833,48.11,21,3,9.93
217,Kavaratti,IN,2022-10-17 07:48:55,10.5669,72.642,81.16,76,97,4.05
218,Vestmannaeyjar,IS,2022-10-17 07:48:03,63.4427,-20.2734,42.84,70,34,2.68
219,Dedovichi,RU,2022-10-17 07:53:07,57.5517,29.9502,53.38,72,7,16.6
220,Saint Paul Harbor,US,2022-10-17 07:47:14,57.79,-152.4072,47.71,81,75,10.36
221,Longyearbyen,SJ,2022-10-17 07:47:59,78.2186,15.6401,22.84,74,75,8.05
222,Lorengau,PG,2022-10-17 07:49:10,-2.0226,147.2712,80.62,82,95,6.55
223,Kenai,US,2022-10-17 07:53:08,60.5544,-151.2583,40.14,96,40,3.44
224,Zhangjiakou,CN,2022-10-17 07:53:08,40.81,114.8794,49.62,16,0,14.23
225,Puerto Colombia,CO,2022-10-17 07:53:08,10.9878,-74.9547,77.09,86,100,10.33
226,Béjar,ES,2022-10-17 07:53:08,40.3864,-5.7634,58.59,79,77,3.94
227,Krasnoural'sk,RU,2022-10-17 07:53:09,58.3638,60.0407,44.96,69,100,7.96
228,Juradó,CO,2022-10-17 07:53:09,7.1053,-77.7641,75.25,95,100,3.83
229,Los Llanos de Aridane,ES,2022-10-17 07:49:11,28.6585,-17.9182,64.15,78,0,8.99
230,Uyuni,BO,2022-10-17 07:53:09,-20.4597,-66.825,36.88,42,0,8.84
231,Peştera,RO,2022-10-17 07:53:09,44.1833,28.1333,61.34,48,0,7.25
232,Abu Kamal,SY,2022-10-17 07:53:09,34.4506,40.9171,89.6,13,49,6.53
233,Noumea,NC,2022-10-17 07:53:10,-22.2763,166.4572,75.18,73,100,4.94
234,Ariniş,RO,2022-10-17 07:53:10,47.5,23.2333,55.58,58,7,3.56
235,Tasiilaq,GL,2022-10-17 07:48:02,65.6145,-37.6368,32.16,64,81,7.14
236,Bairiki Village,KI,2022-10-17 07:53:11,1.3292,172.9752,82.4,78,20,9.22
237,Leh,IN,2022-10-17 07:53:11,34.1667,77.5833,46.0,18,0,1.59
238,Gurupá,BR,2022-10-17 07:53:11,-1.405,-51.64,72.52,98,61,2.95
239,Bengkulu,ID,2022-10-17 07:47:37,-3.8004,102.2655,81.34,76,93,5.06
240,Darhan,MN,2022-10-17 07:53:11,49.4867,105.9228,45.91,23,0,9.1
241,Kang,BW,2022-10-17 07:53:11,-23.6752,22.7876,73.67,52,99,5.88
242,Miraflores,MX,2022-10-17 07:53:11,19.2167,-98.8083,64.02,86,100,1.14
243,Raja,SS,2022-10-17 07:53:11,8.4596,25.678,77.77,73,100,4.74
244,Pangnirtung,CA,2022-10-17 07:48:35,66.1451,-65.7125,41.4,92,100,9.26
245,Henties Bay,NA,2022-10-17 07:48:20,-22.116,14.2845,63.3,79,2,3.65
246,Ugoofaaru,MV,2022-10-17 07:49:03,5.6667,73.0,80.92,80,100,20.2
247,Meulaboh,ID,2022-10-17 07:48:43,4.1363,96.1285,84.9,64,91,6.31
248,Port Alfred,ZA,2022-10-17 07:47:18,-33.5906,26.891,76.17,77,97,5.99
249,Cherskiy,RU,2022-10-17 07:48:10,68.75,161.3,-1.75,98,55,5.99
250,Bloomsburg,US,2022-10-17 07:53:13,41.0037,-76.4549,49.95,91,88,2.35
251,Deggendorf,DE,2022-10-17 07:53:14,48.8333,12.9667,62.02,72,73,4.92
252,La Rioja,ES,2022-10-17 07:49:21,42.25,-2.5,56.98,77,100,4.56
253,Grand-Santi,GF,2022-10-17 07:53:14,4.25,-54.3833,71.01,100,58,2.04
254,Beira,MZ,2022-10-17 07:49:32,-19.8436,34.8389,82.49,74,40,3.44
255,Bilibino,RU,2022-10-17 07:49:21,68.0546,166.4372,-11.04,100,73,4.14
256,Sambava,MG,2022-10-17 07:48:15,-14.2667,50.1667,76.91,62,34,12.77
257,Hirara,JP,2022-10-17 07:47:42,24.8,125.2833,82.26,83,75,17.27
258,Sredniy Ikorets,RU,2022-10-17 07:51:28,51.0675,39.7584,47.86,55,15,6.98
259,Lázaro Cárdenas,MX,2022-10-17 07:48:54,17.9583,-102.2,78.35,85,88,3.96
260,Saint Anthony,US,2022-10-17 07:50:46,45.0205,-93.218,33.73,62,0,17.27
261,Kayerkan,RU,2022-10-17 07:53:15,69.3497,87.7602,28.53,100,100,7.25
262,Coahuayana Viejo,MX,2022-10-17 07:48:23,18.7333,-103.6833,77.11,91,100,3.2
263,Swan Hill,AU,2022-10-17 07:53:15,-35.3378,143.5544,60.66,61,100,2.48
264,Bam,IR,2022-10-17 07:53:16,29.106,58.357,85.96,8,0,12.8
265,Niquero,CU,2022-10-17 07:53:16,20.0431,-77.5828,76.8,87,4,10.45
266,Blackwater,AU,2022-10-17 07:53:16,-23.5833,148.8833,82.9,35,0,3.02
267,Mikhaylovka,RU,2022-10-17 07:53:16,50.06,43.2379,47.7,50,0,3.42
268,Oranjemund,NA,2022-10-17 07:53:16,-28.55,16.4333,63.72,74,17,6.49
269,Souillac,MU,2022-10-17 07:47:30,-20.5167,57.5167,71.98,83,75,11.5
270,Yar-Sale,RU,2022-10-17 07:48:46,66.8333,70.8333,39.83,83,100,4.43
271,Vanimo,PG,2022-10-17 07:48:00,-2.6741,141.3028,81.32,77,43,3.56
272,Corinth,GR,2022-10-17 07:45:59,37.9407,22.9573,68.9,52,0,15.52
273,Severo-Kuril'sk,RU,2022-10-17 07:47:14,50.6789,156.125,48.85,93,100,20.96
274,Sitka,US,2022-10-17 07:47:36,57.0531,-135.33,55.29,88,100,3.44
275,Lebu,CL,2022-10-17 07:48:18,-37.6167,-73.65,51.66,87,100,9.46
276,Padang,ID,2022-10-17 07:44:06,-0.9492,100.3543,84.25,72,100,2.71
277,Ormara,PK,2022-10-17 07:50:41,25.2088,64.6357,83.03,56,0,13.15
278,Zabul Province,AF,2022-10-17 07:53:17,32.25,67.25,71.69,8,0,4.92
279,Baie-Comeau,CA,2022-10-17 07:53:17,49.2168,-68.1489,42.48,100,100,2.3
280,Seoul,KR,2022-10-17 07:50:05,37.5683,126.9778,58.39,30,0,12.66
281,Ulaanbaatar,MN,2022-10-17 07:49:35,47.9077,106.8832,41.13,20,0,4.47
282,Udaipura,IN,2022-10-17 07:53:18,23.0833,78.5,82.71,62,6,5.41
283,Toamasina,MG,2022-10-17 07:48:34,-18.1667,49.3833,80.6,61,75,8.05
284,Lüderitz,NA,2022-10-17 07:48:55,-26.6481,15.1594,65.41,70,1,10.71
285,Fairhope,US,2022-10-17 07:53:18,30.523,-87.9033,74.68,86,75,4.61
286,Faya,SA,2022-10-17 07:47:32,18.3851,42.4509,71.71,16,1,5.59
287,Birao,CF,2022-10-17 07:51:42,10.2849,22.7882,82.8,55,100,1.07
288,Boende,CD,2022-10-17 07:49:12,-0.2167,20.8667,76.82,79,98,2.42
289,Lucapa,AO,2022-10-17 07:48:26,-8.4192,20.7447,80.76,54,78,4.47
290,Belaya Gora,RU,2022-10-17 07:47:28,68.5333,146.4167,14.56,85,100,5.1
291,Olafsvik,IS,2022-10-17 07:47:17,64.8945,-23.7142,36.93,74,74,5.5
292,Santiago de Cuba,CU,2022-10-17 07:53:19,20.0247,-75.8219,72.39,95,8,3.4
293,Harper,LR,2022-10-17 07:51:07,4.375,-7.7169,77.94,83,84,2.51
294,Lagoa,PT,2022-10-17 07:47:42,39.05,-27.9833,65.19,65,50,37.74
295,Bay-Khaak,RU,2022-10-17 07:53:19,51.1667,94.5,47.03,18,100,3.74
296,Belyy Yar,RU,2022-10-17 07:50:38,53.6039,91.3903,37.29,75,0,2.24
297,Bonavista,CA,2022-10-17 07:51:57,48.6499,-53.1147,51.37,94,100,25.86
298,Jutaí,BR,2022-10-17 07:53:19,-5.1833,-68.9,69.93,100,99,1.3
299,Fort Nelson,CA,2022-10-17 07:53:19,58.8053,-122.7002,31.59,80,0,3.44
300,Lalibela,ET,2022-10-17 07:53:21,12.0333,39.0333,70.45,35,0,0.98
301,Manadhoo,MV,2022-10-17 07:53:21,5.7667,73.3833,80.49,82,100,19.22
302,Saint-Philippe,RE,2022-10-17 07:47:25,-21.3585,55.7679,78.39,79,18,14.58
303,Suntar,RU,2022-10-17 07:53:21,62.1444,117.6319,32.49,89,100,5.59
304,Kisköre,HU,2022-10-17 07:53:21,47.5,20.5,57.2,46,26,0.36
305,Nova Borova,UA,2022-10-17 07:53:22,50.693,28.6345,52.18,46,28,11.68
306,Atar,MR,2022-10-17 07:48:08,20.5169,-13.0499,86.36,28,14,9.53
307,Gamba,GA,2022-10-17 07:51:43,-2.65,10.0,82.02,71,7,3.06
308,Marsh Harbour,BS,2022-10-17 07:50:29,26.5412,-77.0636,78.76,66,6,11.14
309,Masinloc,PH,2022-10-17 07:53:22,15.5333,120.05,73.11,77,87,5.44
310,Jiangyou,CN,2022-10-17 07:49:30,31.7667,104.7167,75.81,38,13,5.17
311,Hofn,IS,2022-10-17 07:48:26,64.2539,-15.2082,40.91,72,13,9.8
312,Rio Grande,BR,2022-10-17 07:46:36,-32.035,-52.0986,60.93,92,52,17.96
313,Puerto Escondido,MX,2022-10-17 07:48:35,15.85,-97.0667,78.35,84,100,4.18
314,Merauke,ID,2022-10-17 07:49:02,-8.4667,140.3333,81.86,84,100,15.23
315,Poykovskiy,RU,2022-10-17 07:53:23,61.2333,73.3333,41.29,93,100,6.71
316,Tondano,ID,2022-10-17 07:53:23,1.3038,124.9112,80.69,81,94,2.3
317,Praia,CV,2022-10-17 07:51:33,14.9215,-23.5087,75.74,83,20,10.36
318,Moussoro,TD,2022-10-17 07:53:24,13.6408,16.4901,90.81,16,1,17.11
319,Cherepovets,RU,2022-10-17 07:50:00,59.1333,37.9,48.02,81,100,11.18
320,Dudinka,RU,2022-10-17 07:48:19,69.4058,86.1778,29.62,94,100,10.71
321,Port Macquarie,AU,2022-10-17 07:51:21,-31.4333,152.9167,64.89,87,46,8.08
322,Izhma,RU,2022-10-17 07:53:24,65.0083,53.9113,44.31,87,100,9.69
323,Wanxian,CN,2022-10-17 07:53:24,30.8039,108.3897,79.36,30,43,4.99
324,Leshukonskoye,RU,2022-10-17 07:51:28,64.8989,45.7622,44.51,93,100,10.67
325,Kungurtug,RU,2022-10-17 07:53:25,50.5994,97.5228,51.28,16,53,0.94
326,Samarinda,ID,2022-10-17 07:53:25,-0.5,117.15,87.49,67,81,2.77
327,Linhai,CN,2022-10-17 07:51:11,28.85,121.1167,63.52,83,100,9.37
328,Gambēla,ET,2022-10-17 07:53:25,8.25,34.5833,82.49,61,100,2.95
329,Iqaluit,CA,2022-10-17 07:48:08,63.7506,-68.5145,37.13,93,100,18.41
330,Bahraich,IN,2022-10-17 07:53:26,27.5833,81.6,85.14,50,0,7.76
331,Tarpon Springs,US,2022-10-17 07:53:26,28.1461,-82.7568,76.96,83,100,6.91
332,Zambezi,ZM,2022-10-17 07:53:26,-13.5432,23.1047,87.17,33,67,7.11
333,Ixtapa,MX,2022-10-17 07:49:12,20.7,-105.2,82.22,84,100,1.01
334,Buchmany,UA,2022-10-17 07:53:26,51.0689,28.0421,53.35,50,32,10.63
335,Nsanje,MW,2022-10-17 07:53:27,-16.92,35.262,92.93,25,32,5.77
336,Matagami,CA,2022-10-17 07:53:27,49.7502,-77.6328,39.31,100,100,2.3
337,Srednekolymsk,RU,2022-10-17 07:47:33,67.45,153.6833,3.0,95,100,1.83
338,Plettenberg Bay,ZA,2022-10-17 07:53:27,-34.0527,23.3716,71.08,68,2,9.53
339,Ca Mau,VN,2022-10-17 07:53:27,9.1769,105.15,86.0,67,99,5.7
340,George Town,MY,2022-10-17 07:48:04,5.4112,100.3354,89.53,71,20,9.22
341,Gongzhuling,CN,2022-10-17 07:53:27,43.5008,124.8198,43.97,49,100,9.8
342,Moses Lake,US,2022-10-17 07:53:28,47.1301,-119.2781,62.89,40,4,5.64
343,Dingle,PH,2022-10-17 07:47:34,10.9995,122.6711,81.45,80,100,12.35
344,Artvin Province,TR,2022-10-17 07:49:44,41.1667,41.8333,69.17,60,82,2.86
345,Chu,KZ,2022-10-17 07:48:09,43.5983,73.7614,65.95,41,100,11.36
346,Waddān,LY,2022-10-17 07:53:28,29.1614,16.139,70.47,62,39,7.0
347,Hasaki,JP,2022-10-17 07:47:33,35.7333,140.8333,72.28,88,100,11.07
348,Trincomalee,LK,2022-10-17 07:49:04,8.5711,81.2335,87.96,62,100,13.8
349,Porto Santo,PT,2022-10-17 07:53:28,33.072,-16.3415,70.18,78,20,12.66
350,Iturama,BR,2022-10-17 07:53:29,-19.7281,-50.1956,74.55,48,97,3.8
351,Mahébourg,MU,2022-10-17 07:47:37,-20.4081,57.7,76.24,83,75,11.5
352,Beringovskiy,RU,2022-10-17 07:49:34,63.05,179.3167,23.05,64,48,13.82
353,Apricena,IT,2022-10-17 07:53:30,41.7839,15.4437,57.02,62,0,5.06
354,Bud,US,2022-10-17 07:53:30,39.447,-86.1758,44.67,64,14,8.81
355,San Carlos,VE,2022-10-17 07:53:30,9.6612,-68.5827,71.15,96,89,2.35
356,Seymchan,RU,2022-10-17 07:50:27,62.8833,152.4333,-2.94,100,36,2.19
357,Katobu,ID,2022-10-17 07:53:31,-4.9408,122.5276,83.23,80,97,3.13
358,Bonthe,SL,2022-10-17 07:47:40,7.5264,-12.505,75.99,90,78,5.73
359,Bembèrèkè,BJ,2022-10-17 07:53:31,10.2283,2.6634,77.29,65,5,2.04
360,Tessalit,ML,2022-10-17 07:49:52,20.1986,1.0114,85.48,17,11,19.01
361,Tigil',RU,2022-10-17 07:53:32,57.8,158.6667,30.58,98,100,14.7
362,Korla,CN,2022-10-17 07:48:52,41.7597,86.1469,68.56,14,10,11.54
363,Carberry,CA,2022-10-17 07:53:32,49.8689,-99.3602,30.43,62,18,6.02
364,Saint-Pierre,RE,2022-10-17 07:48:59,-21.3393,55.4781,78.48,61,0,23.02
365,Yangi Marg`ilon,UZ,2022-10-17 07:49:28,40.4272,71.7189,72.32,28,100,6.91
366,Taihe,CN,2022-10-17 07:53:32,30.8712,105.3845,77.34,34,46,7.2
367,Manaus,BR,2022-10-17 07:53:32,-3.1019,-60.025,79.3,94,40,4.61
368,Vila Velha,BR,2022-10-17 07:47:32,-20.3297,-40.2925,69.94,93,100,9.22
369,Golden,US,2022-10-17 07:53:33,39.7555,-105.2211,45.84,69,0,8.05
370,Winsum,NL,2022-10-17 07:53:33,53.33,6.5208,61.11,91,100,14.23
371,Mabaruma,GY,2022-10-17 07:53:33,8.2,-59.7833,72.61,99,99,1.12
372,Houma,US,2022-10-17 07:48:32,29.5958,-90.7195,69.01,95,80,0.0
373,Apac,UG,2022-10-17 07:53:33,1.9756,32.5386,77.27,62,100,0.56
374,São Filipe,CV,2022-10-17 07:49:45,14.8961,-24.4956,77.04,74,43,5.61
375,Shiraz,IR,2022-10-17 07:50:04,29.6036,52.5388,80.04,14,0,0.0
376,Port Pirie,AU,2022-10-17 07:53:34,-33.1833,138.0167,73.99,35,95,13.58
377,Ambilobe,MG,2022-10-17 07:51:29,-13.2,49.05,91.24,30,33,2.75
378,Myaundzha,RU,2022-10-17 07:53:34,63.0494,147.1858,-1.1,97,100,2.71
379,Taketa,JP,2022-10-17 07:53:34,32.9652,131.3785,63.79,97,100,3.65
380,Bilma,NE,2022-10-17 07:48:32,18.6853,12.9164,82.96,26,0,13.73
381,Hambantota,LK,2022-10-17 07:48:24,6.1241,81.1185,88.14,70,100,10.36
382,Marawi,PH,2022-10-17 07:48:55,7.9986,124.2928,75.2,90,100,2.71
383,Ayacucho,PE,2022-10-17 07:53:35,-13.1583,-74.2239,56.73,75,79,1.77
384,Atlantic City,US,2022-10-17 07:53:35,39.3643,-74.4229,61.99,86,0,4.61
385,Vila do Maio,CV,2022-10-17 07:53:35,15.1333,-23.2167,75.99,72,89,11.56
386,Cartagena,CO,2022-10-17 07:51:50,10.3997,-75.5144,78.42,94,40,0.0
387,Coquimbo,CL,2022-10-17 07:44:40,-29.9533,-71.3436,55.13,87,100,2.3
388,Nhulunbuy,AU,2022-10-17 07:49:31,-12.2333,136.7667,86.61,66,40,12.66
389,Mincivan,AZ,2022-10-17 07:53:36,39.0294,46.7185,66.33,72,99,4.68
390,Ola,RU,2022-10-17 07:49:47,59.5833,151.2833,25.14,76,100,19.8
391,Westport,US,2022-10-17 07:47:36,41.1415,-73.3579,53.89,85,75,1.01
392,Bocos,PH,2022-10-17 07:53:36,16.9265,121.0573,73.44,86,98,0.65
393,Sciacca,IT,2022-10-17 07:53:36,37.5082,13.0881,72.03,75,6,5.28
394,Hassan,IN,2022-10-17 07:53:37,13.0006,76.0994,77.36,72,99,9.28
395,Narsaq,GL,2022-10-17 07:47:31,60.9167,-46.05,26.82,69,100,6.89
396,Kawalu,ID,2022-10-17 07:51:54,-7.3817,108.2082,79.09,79,100,5.55
397,Berlevåg,NO,2022-10-17 07:48:21,70.8578,29.0864,44.4,93,75,9.22
398,Te Anau,NZ,2022-10-17 07:49:01,-45.4167,167.7167,42.58,95,88,4.9
399,Aksay,RU,2022-10-17 07:53:37,47.26,39.87,53.82,46,90,15.01
400,Santa Isabel Rio Negro,BR,2022-10-17 07:48:46,-0.4139,-65.0192,72.28,98,100,2.17
401,Pital,CO,2022-10-17 07:53:38,2.2665,-75.8044,64.51,83,83,3.94
402,Kodīnar,IN,2022-10-17 07:53:39,20.7903,70.7031,89.82,43,12,9.19
403,Ancud,CL,2022-10-17 07:47:27,-41.8697,-73.8203,49.37,93,58,2.71
404,Wagar,SD,2022-10-17 07:53:39,16.1525,36.2032,94.35,31,4,7.99
405,Mahibadhoo,MV,2022-10-17 07:51:24,3.7833,72.9667,81.54,74,89,18.54
406,Banda Aceh,ID,2022-10-17 07:48:11,5.5577,95.3222,83.26,70,100,16.26
407,Mosquera,CO,2022-10-17 07:53:39,4.7059,-74.2302,51.89,93,40,2.3
408,Cortez,US,2022-10-17 07:53:40,37.3489,-108.5859,44.04,80,98,0.81
409,Kangaatsiaq,GL,2022-10-17 07:47:35,68.3065,-53.4641,37.31,72,100,5.19
410,Ponta Delgada,PT,2022-10-17 07:53:40,37.7333,-25.6667,66.92,72,20,21.85
411,Kano,NG,2022-10-17 07:49:52,12.0001,8.5167,73.29,60,49,2.3
412,Izumo,JP,2022-10-17 07:53:41,35.3667,132.7667,69.75,73,75,13.8
413,Chernyshevskiy,RU,2022-10-17 07:53:41,63.0128,112.4714,30.16,78,100,6.78
414,Bend,US,2022-10-17 07:53:41,44.0582,-121.3153,53.38,56,0,5.75
415,Mount Gambier,AU,2022-10-17 07:49:29,-37.8333,140.7667,56.14,64,14,7.74
416,Anastácio,BR,2022-10-17 07:53:41,-20.4836,-55.8069,72.5,90,94,5.06
417,Santa Rosalía,MX,2022-10-17 07:53:41,27.3167,-112.2833,70.74,64,0,5.26
418,Mairwa,IN,2022-10-17 07:53:42,26.2333,84.15,86.07,45,0,8.43
419,Khovd,MN,2022-10-17 07:53:42,48.0056,91.6419,51.71,22,97,4.18
420,Kirakira,SB,2022-10-17 07:53:42,-10.4544,161.9205,80.26,80,97,4.99
421,Bariloche,AR,2022-10-17 07:47:40,-41.1456,-71.3082,51.03,66,40,8.05
422,Cap Malheureux,MU,2022-10-17 07:45:16,-19.9842,57.6142,76.46,68,34,7.0
423,São Miguel do Araguaia,BR,2022-10-17 07:51:21,-13.275,-50.1628,75.7,32,5,5.68
424,Namatanai,PG,2022-10-17 07:47:57,-3.6667,152.4333,81.9,78,66,11.18
425,Hervey Bay,AU,2022-10-17 07:50:40,-25.2986,152.8535,68.02,88,100,8.99
426,Gumdag,TM,2022-10-17 07:53:43,39.2061,54.5906,76.33,32,77,2.37
427,Limbuhan,PH,2022-10-17 07:53:43,11.8838,124.0501,82.85,80,99,13.94
428,Middle Island,US,2022-10-17 07:53:44,40.8843,-72.9373,58.24,78,75,0.0
429,Margate,GB,2022-10-17 07:48:03,51.3813,1.3862,62.31,91,100,4.0
430,Ust-Tsilma,RU,2022-10-17 07:48:07,65.441,52.1498,44.55,85,100,9.73
431,Salalah,OM,2022-10-17 07:48:13,17.0151,54.0924,89.69,33,75,5.75
432,San Ramon,US,2022-10-17 07:48:10,37.7799,-121.978,58.66,88,0,5.75
433,Talcahuano,CL,2022-10-17 07:49:43,-36.7167,-73.1167,51.48,93,100,8.05
434,Tautira,PF,2022-10-17 07:49:40,-17.7333,-149.15,76.06,85,79,21.25
435,College,US,2022-10-17 07:49:22,64.8569,-147.8028,36.07,87,75,9.22
436,Tarakan,ID,2022-10-17 07:53:45,3.3,117.6333,85.5,74,40,5.75
437,Qinzhou,CN,2022-10-17 07:53:45,21.95,108.6167,86.49,34,100,17.6
438,Erbil,IQ,2022-10-17 07:53:45,36.1926,44.0106,93.02,9,40,5.75
439,Yenagoa,NG,2022-10-17 07:53:45,4.9247,6.2642,80.74,76,69,1.61
440,Kyra,RU,2022-10-17 07:48:40,49.5776,111.9753,42.76,23,8,4.27
441,La Santisima Trinidad,BO,2022-10-17 07:53:46,-14.8333,-64.9,70.68,91,67,3.13
442,La Ronge,CA,2022-10-17 07:49:10,55.1001,-105.2842,35.85,55,100,14.97
443,Sol'-Iletsk,RU,2022-10-17 07:51:25,51.1631,54.9918,48.96,52,14,5.77
444,Praia da Vitória,PT,2022-10-17 07:49:34,38.7333,-27.0667,67.75,77,40,22.84
445,Auki,SB,2022-10-17 07:49:48,-8.7676,160.7034,78.91,81,97,5.93
446,Santo Augusto,BR,2022-10-17 07:53:47,-27.8508,-53.7772,55.78,95,2,6.87
447,Gualaquiza,EC,2022-10-17 07:53:47,-3.4,-78.55,59.76,95,46,1.32
448,Najrān,SA,2022-10-17 07:53:47,17.4924,44.1277,77.65,19,96,14.14
449,Susanville,US,2022-10-17 07:53:47,40.4163,-120.653,44.44,49,0,0.0
450,Taos,US,2022-10-17 07:53:48,36.4072,-105.5731,44.2,80,0,6.91
451,Rundu,NA,2022-10-17 07:51:37,-17.9333,19.7667,75.38,48,100,5.73
452,North Bend,US,2022-10-17 07:49:51,43.4065,-124.2243,57.85,97,100,6.91
453,San Patricio,US,2022-10-17 07:47:19,28.017,-97.5169,80.49,83,87,4.83
454,Karratha,AU,2022-10-17 07:48:16,-20.7377,116.8463,85.69,34,0,16.08
455,Broome,US,2022-10-17 07:49:21,42.2506,-75.833,48.67,74,0,4.61
456,Novomykolayivka,UA,2022-10-17 07:53:49,47.9781,35.9102,54.45,41,0,8.14
457,Nabire,ID,2022-10-17 07:53:50,-3.3667,135.4833,81.05,79,99,1.34
458,Anjār,IN,2022-10-17 07:53:50,23.1333,70.0167,92.26,22,0,5.95
459,Gushikawa,JP,2022-10-17 07:53:50,26.3544,127.8686,72.99,94,75,8.05
460,Vaitape,PF,2022-10-17 07:49:33,-16.5167,-151.75,78.82,73,13,12.73
461,Vadsø,NO,2022-10-17 07:53:50,70.0744,29.7487,43.68,87,75,6.91
462,Shache,CN,2022-10-17 07:53:50,38.4167,77.2406,70.95,9,99,3.62
463,Malé,MV,2022-10-17 07:53:51,4.1748,73.5089,82.35,89,75,11.5
464,Sept-Îles,CA,2022-10-17 07:53:51,50.2001,-66.3821,48.72,99,100,4.61
465,Pilar,BR,2022-10-17 07:53:51,-9.5972,-35.9567,69.73,91,61,1.05
466,Fukuechō,JP,2022-10-17 07:51:08,32.6881,128.8419,68.36,73,75,13.8
467,Ketchikan,US,2022-10-17 07:53:51,55.3422,-131.6461,60.78,93,26,8.84
468,Ondjiva,AO,2022-10-17 07:53:52,-17.0667,15.7333,69.84,78,20,2.3
469,Fairbanks,US,2022-10-17 07:51:33,64.8378,-147.7164,36.09,87,20,9.22
470,Mahajanga,MG,2022-10-17 07:53:52,-15.7167,46.3167,87.82,48,40,4.61
471,Jalu,LY,2022-10-17 07:49:04,29.0331,21.5482,72.19,49,0,13.85
472,Morrinhos,BR,2022-10-17 07:53:52,-17.7311,-49.0994,67.69,47,0,4.03
473,Kita,ML,2022-10-17 07:53:52,13.0349,-9.4895,77.54,70,1,3.02
474,Río Gallegos,AR,2022-10-17 07:48:45,-51.6226,-69.2181,39.25,75,0,6.91
475,Tinqueux,FR,2022-10-17 07:53:52,49.25,3.9833,66.22,77,75,4.61
476,Wajima,JP,2022-10-17 07:53:53,37.4,136.9,66.88,82,75,3.44
477,Bagan,RU,2022-10-17 07:53:53,54.1001,77.6646,51.21,57,28,16.06
478,Merritt Island,US,2022-10-17 07:53:53,28.5392,-80.672,77.0,82,25,6.44
479,Fare,PF,2022-10-17 07:53:53,-16.7,-151.0167,78.66,73,0,14.7
480,Morozovsk,RU,2022-10-17 07:53:53,48.3539,41.8261,51.1,45,0,9.24
481,Dunedin,NZ,2022-10-17 07:47:12,-45.8742,170.5036,49.8,81,100,7.54
482,Cherdyn',RU,2022-10-17 07:53:54,60.403,56.4787,45.64,82,95,7.18
483,Umm Kaddadah,SD,2022-10-17 07:49:11,13.6017,26.6876,89.44,13,36,17.94
484,Arrondissement de Saint-Denis,FR,2022-10-17 07:49:51,48.9167,2.3333,65.17,86,100,13.8
485,Penzance,GB,2022-10-17 07:53:54,50.1186,-5.5371,56.77,88,20,9.22
486,Takoradze,GH,2022-10-17 07:51:18,4.8845,-1.7554,78.58,81,72,2.19
487,Sarakhs,IR,2022-10-17 07:52:08,36.5449,61.1577,83.08,15,0,4.99
488,Moree,AU,2022-10-17 07:53:55,-29.4667,149.85,68.97,40,0,4.56
489,Khani,GE,2022-10-17 07:53:55,41.9563,42.9566,63.97,59,85,4.47
490,Namwala,ZM,2022-10-17 07:53:55,-15.7504,26.4384,87.91,21,76,11.03
491,Chancay,PE,2022-10-17 07:49:11,-11.5714,-77.2672,59.31,93,43,6.15
492,Brae,GB,2022-10-17 07:49:41,60.3964,-1.353,49.17,77,100,11.79
493,Taltal,CL,2022-10-17 07:53:55,-25.4,-70.4833,55.35,80,0,4.05
494,Calama,CL,2022-10-17 07:51:38,-22.4667,-68.9333,41.49,24,0,17.27
495,Tamala,RU,2022-10-17 07:53:56,52.541,43.2515,46.22,57,32,9.53
496,Beloha,MG,2022-10-17 07:50:57,-25.1667,45.05,91.47,23,5,6.33
497,Kasongo-Lunda,CD,2022-10-17 07:51:58,-6.4667,16.8167,83.23,62,47,2.28
498,San Cristobal,VE,2022-10-17 07:49:20,7.7669,-72.225,64.2,96,100,1.5
499,Garoowe,SO,2022-10-17 07:49:51,8.4054,48.4845,83.46,52,23,2.51
500,Tyazhinskiy,RU,2022-10-17 07:53:57,56.116,88.524,48.63,77,100,9.1
501,Lagos,NG,2022-10-17 07:49:02,6.5833,3.75,79.12,79,75,2.93
502,Matadi,CD,2022-10-17 07:53:58,-5.8167,13.45,82.6,67,80,4.76
503,Gamboma,CG,2022-10-17 07:53:58,-1.8764,15.8644,81.93,69,93,3.24
504,Baturaja,ID,2022-10-17 07:53:58,-4.1333,104.1667,88.25,64,40,0.72
505,Charters Towers,AU,2022-10-17 07:53:58,-20.1,146.2667,82.6,48,71,19.93
506,Inta,RU,2022-10-17 07:53:58,66.0317,60.1659,43.11,81,89,14.27
507,Garhi Khairo,PK,2022-10-17 07:53:59,28.0606,67.9803,96.42,13,0,6.04
508,Rāzole,IN,2022-10-17 07:53:59,16.4833,81.8333,85.6,71,95,3.38
509,Lompoc,US,2022-10-17 07:48:28,34.6391,-120.4579,54.59,90,0,5.75
510,Laguna,US,2022-10-17 07:48:48,38.421,-121.4238,60.78,83,0,4.61
511,Miles City,US,2022-10-17 07:53:59,46.4083,-105.8406,41.68,31,8,5.1
512,Saurimo,AO,2022-10-17 07:53:59,-9.6608,20.3916,75.52,73,0,5.75
513,Devon,GB,2022-10-17 07:53:18,50.75,-3.75,55.69,93,100,10.36
514,Una,IN,2022-10-17 07:54:00,20.8167,71.0333,89.49,43,14,11.3
515,Sisimiut,GL,2022-10-17 07:49:00,66.9395,-53.6735,40.08,69,100,11.95
516,Nouadhibou,MR,2022-10-17 07:47:39,20.931,-17.0347,69.78,83,99,11.5
517,Mount Darwin,ZW,2022-10-17 07:54:00,-16.7725,31.5838,83.08,27,1,11.92
518,Ranong,TH,2022-10-17 07:50:50,9.9658,98.6348,78.73,97,100,7.67
519,San Lorenzo,PY,2022-10-17 07:54:01,-25.3333,-57.5333,70.74,73,0,10.36
520,Olesno,PL,2022-10-17 07:54:02,50.877,18.4209,62.1,60,16,12.3
521,Mogadishu,SO,2022-10-17 07:54:02,2.0371,45.3438,84.07,74,75,11.5
522,Goderich,CA,2022-10-17 07:49:52,43.7501,-81.7165,45.91,87,95,5.75
523,Qeshm,IR,2022-10-17 07:54:02,26.9581,56.2719,94.87,49,1,2.98
524,Kiryat Gat,IL,2022-10-17 07:48:43,31.61,34.7642,81.39,17,0,9.33
525,Itarema,BR,2022-10-17 07:50:44,-2.9248,-39.9167,77.49,79,72,16.22
526,Mokhotlong,LS,2022-10-17 07:54:03,-29.2894,29.0675,63.1,54,97,6.55
527,Risti,EE,2022-10-17 07:54:03,58.9975,24.058,52.54,78,28,13.8
528,Royan,FR,2022-10-17 07:54:04,45.6285,-1.0281,63.82,92,100,13.0
529,Krasnoarmiys'k,UA,2022-10-17 07:54:04,48.282,37.1758,52.14,41,2,8.14
530,La Orilla,MX,2022-10-17 07:54:04,17.9833,-102.2333,77.54,86,93,4.29
531,Hamilton,US,2022-10-17 07:48:26,39.1834,-84.5333,48.83,66,0,5.75
532,Wanning,CN,2022-10-17 07:47:27,18.8003,110.3967,81.1,60,100,12.71
533,Kamensk-Ural'skiy,RU,2022-10-17 07:54:05,56.4185,61.9329,44.15,75,100,11.86
534,Hualmay,PE,2022-10-17 07:48:40,-11.0964,-77.6139,60.24,90,21,8.52
535,Grenville,GD,2022-10-17 07:54:05,12.1167,-61.6167,80.65,79,8,9.98
536,Channel-Port aux Basques,CA,2022-10-17 07:54:05,47.5702,-59.1367,54.28,99,100,3.85
537,Smidovich,RU,2022-10-17 07:54:05,48.6,133.8167,43.12,47,59,5.06
538,Mackay,AU,2022-10-17 07:53:16,-21.15,149.2,79.68,78,35,11.25
539,Marathon,US,2022-10-17 07:54:05,44.9,-89.7668,33.55,82,100,11.5
540,Leer,SS,2022-10-17 07:54:06,8.3018,30.1418,81.54,67,100,7.94
541,Nānākuli,US,2022-10-17 07:54:06,21.3906,-158.1547,78.46,68,40,3.44
542,Lenoir City,US,2022-10-17 07:54:06,35.7973,-84.256,61.95,96,99,4.25
543,Sibolga,ID,2022-10-17 07:48:01,1.7427,98.7792,83.91,65,22,4.32
544,Ahmednagar,IN,2022-10-17 07:54:06,19.0833,74.7333,81.57,65,84,7.54
545,Maryborough,AU,2022-10-17 07:54:06,-25.5333,152.7,68.11,77,100,4.59
546,Wiener Neustadt,AT,2022-10-17 07:50:27,47.8,16.25,59.31,93,86,2.3
547,Diamantino,BR,2022-10-17 07:54:07,-14.4086,-56.4461,77.76,47,39,1.63
548,Sayyan,YE,2022-10-17 07:54:07,15.1718,44.3244,65.46,23,33,7.96
549,Vardø,NO,2022-10-17 07:48:08,70.3705,31.1107,44.58,87,0,10.36
550,Kazygurt,KZ,2022-10-17 07:54:08,41.7589,69.3864,64.11,50,100,11.03
551,Verāval,IN,2022-10-17 07:49:14,20.9,70.3667,89.15,42,14,4.79
552,Aripuanã,BR,2022-10-17 07:54:08,-9.1667,-60.6333,70.59,99,100,0.74
553,Puerto Ayacucho,VE,2022-10-17 07:54:08,5.6639,-67.6236,72.28,96,94,3.18
554,Kisi,NG,2022-10-17 07:54:09,9.0833,3.85,78.03,71,7,2.35
555,Banamba,ML,2022-10-17 07:54:09,13.55,-7.45,81.3,52,77,3.04
556,Canavieiras,BR,2022-10-17 07:54:09,-15.675,-38.9472,68.9,94,61,4.05
557,Phan Thiet,VN,2022-10-17 07:51:12,10.9333,108.1,82.63,77,73,7.92
558,Tuxpan,MX,2022-10-17 07:54:10,19.55,-103.4,66.02,97,96,1.14
559,Mujiayingzi,CN,2022-10-17 07:48:19,42.1167,118.7833,46.62,18,0,17.83
560,Vung Tau,VN,2022-10-17 07:51:35,10.346,107.0843,84.33,70,59,7.76
561,Prainha,BR,2022-10-17 07:48:56,-1.8,-53.48,73.0,93,49,2.93
562,Kandiaro,PK,2022-10-17 07:54:10,27.0601,68.2091,97.2,10,0,4.65
563,Abalak,RU,2022-10-17 07:48:11,58.1286,68.5944,40.78,85,99,7.87
564,Quatre Cocos,MU,2022-10-17 07:51:14,-20.2078,57.7625,76.08,68,36,13.24
